{"type":"FeatureCollection", "features": [
{"type":"Feature","geometry":{"type":"Point","coordinates":[103.68616827014961,16.021270185470712]},"properties":{"Irr_Project_Name_T":"โครงการพนังกั้นน้ำทุ่งแซงบาดาล *","OBJECTID":15,"PRJ_CODE":"06450100222498","RID_CODE":"06","RID_NAME":"สำนักชลประทานที่ 6","PRV_CODE":"45","PRV_NAME_T":"จ.ร้อยเอ็ด","SIZE":"L","X":"103.68616827015","Y":"16.02127018547*"}},
{"type":"Feature","geometry":{"type":"Point","coordinates":[103.51587743549533,16.462484535732813]},"properties":{"Irr_Project_Name_T":"โครงการส่งน้ำและบำรุงรักษาลำปาว","OBJECTID":16,"PRJ_CODE":"06460100212528","RID_CODE":"06","RID_NAME":"สำนักชลประทานที่ 6","PRV_CODE":"46","PRV_NAME_T":"จ.กาฬสินธุ์","SIZE":"L","X":"103.5158774354*","Y":"16.46248453573*"}},
{"type":"Feature","geometry":{"type":"Point","coordinates":[102.82539500437599,16.747522447702863]},"properties":{"Irr_Project_Name_T":"โครงการส่งน้ำและบำรุงรักษาหนองหวาย","OBJECTID":17,"PRJ_CODE":"06400100192528","RID_CODE":"06","RID_NAME":"สำนักชลประทานที่ 6","PRV_CODE":"40","PRV_NAME_T":"จ.ขอนแก่น","SIZE":"L","X":"102.8253950043*","Y":"16.74752244770*"}},
{"type":"Feature","geometry":{"type":"Point","coordinates":[102.46616450838542,17.200032582337826]},"properties":{"Irr_Project_Name_T":"อ่างเก็บน้ำห้วยเหล่ายาง","OBJECTID":270,"PRJ_CODE":"05390203102533","RID_CODE":"05","RID_NAME":"สำนักชลประทานที่ 5","PRV_CODE":"39","PRV_NAME_T":"จ.หนองบัวลำภู","SIZE":"M","X":"102.4661645083*","Y":"17.20003258233*"}},
{"type":"Feature","geometry":{"type":"Point","coordinates":[102.88692991568314,16.970223918599004]},"properties":{"Irr_Project_Name_T":"อ่างเก็บน้ำโสกรัง","OBJECTID":281,"PRJ_CODE":"05410203222500","RID_CODE":"05","RID_NAME":"สำนักชลประทานที่ 5","PRV_CODE":"41","PRV_NAME_T":"จ.อุดรธานี","SIZE":"M","X":"102.8869299156*","Y":"16.970223918599"}},
{"type":"Feature","geometry":{"type":"Point","coordinates":[102.93710361334115,17.10847708165204]},"properties":{"Irr_Project_Name_T":"อ่างเก็บน้ำหนองปะโค","OBJECTID":282,"PRJ_CODE":"05410203232496","RID_CODE":"05","RID_NAME":"สำนักชลประทานที่ 5","PRV_CODE":"41","PRV_NAME_T":"จ.อุดรธานี","SIZE":"M","X":"102.9371036133*","Y":"17.108477081652"}},
{"type":"Feature","geometry":{"type":"Point","coordinates":[102.7892185169211,17.213388188314298]},"properties":{"Irr_Project_Name_T":"อ่างเก็บน้ำห้วยสามพาด","OBJECTID":283,"PRJ_CODE":"05410203242535","RID_CODE":"05","RID_NAME":"สำนักชลประทานที่ 5","PRV_CODE":"41","PRV_NAME_T":"จ.อุดรธานี","SIZE":"M","X":"102.7892185169*","Y":"17.21338818831*"}},
{"type":"Feature","geometry":{"type":"Point","coordinates":[102.01525781909311,17.507690280182317]},"properties":{"Irr_Project_Name_T":"อ่างเก็บน้ำห้วยลิ้นควาย (พร้อมระบบ)","OBJECTID":289,"PRJ_CODE":"05420203332538","RID_CODE":"05","RID_NAME":"สำนักชลประทานที่ 5","PRV_CODE":"42","PRV_NAME_T":"จ.เลย","SIZE":"M","X":"102.0152578190*","Y":"17.50769028018*"}},
{"type":"Feature","geometry":{"type":"Point","coordinates":[101.88418889739978,16.890574109007957]},"properties":{"Irr_Project_Name_T":"อ่างเก็บน้ำห้วยยาง","OBJECTID":341,"PRJ_CODE":"05420203352494","RID_CODE":"05","RID_NAME":"สำนักชลประทานที่ 5","PRV_CODE":"42","PRV_NAME_T":"จ.เลย","SIZE":"M","X":"101.8841888974","Y":"16.890574109008"}},
{"type":"Feature","geometry":{"type":"Point","coordinates":[101.77447386327822,15.670106205337163]},"properties":{"Irr_Project_Name_T":"อ่างเก็บน้ำห้วยส้มป่อย","OBJECTID":343,"PRJ_CODE":"06360203822505","RID_CODE":"06","RID_NAME":"สำนักชลประทานที่ 6","PRV_CODE":"36","PRV_NAME_T":"จ.ชัยภูมิ","SIZE":"M","X":"101.7744738632*","Y":"15.67010620533*"}},
{"type":"Feature","geometry":{"type":"Point","coordinates":[102.01035098940667,15.797922355632238]},"properties":{"Irr_Project_Name_T":"อ่างเก็บน้ำหนองปลาเฒ่า","OBJECTID":344,"PRJ_CODE":"06360203862494","RID_CODE":"06","RID_NAME":"สำนักชลประทานที่ 6","PRV_CODE":"36","PRV_NAME_T":"จ.ชัยภูมิ","SIZE":"M","X":"102.0103509894*","Y":"15.79792235563*"}},
{"type":"Feature","geometry":{"type":"Point","coordinates":[102.13164837687117,16.372003749173757]},"properties":{"Irr_Project_Name_T":"อ่างเก็บน้ำหนองผักปัง","OBJECTID":345,"PRJ_CODE":"06360203872502","RID_CODE":"06","RID_NAME":"สำนักชลประทานที่ 6","PRV_CODE":"36","PRV_NAME_T":"จ.ชัยภูมิ","SIZE":"M","X":"102.1316483768*","Y":"16.37200374917*"}},
{"type":"Feature","geometry":{"type":"Point","coordinates":[101.76103554395524,15.494328633859425]},"properties":{"Irr_Project_Name_T":"โครงการพัฒนาลุ่มน้ำชีตอนบนระยะที่ 1","OBJECTID":346,"PRJ_CODE":"06360203910000","RID_CODE":"06","RID_NAME":"สำนักชลประทานที่ 6","PRV_CODE":"36","PRV_NAME_T":"จ.ชัยภูมิ","SIZE":"M","X":"101.7610355439*","Y":"15.49432863385*"}},
{"type":"Feature","geometry":{"type":"Point","coordinates":[102.71349696940968,16.041086664917714]},"properties":{"Irr_Project_Name_T":"อ่างเก็บน้ำหนองนาวัว","OBJECTID":347,"PRJ_CODE":"06400203932497","RID_CODE":"06","RID_NAME":"สำนักชลประทานที่ 6","PRV_CODE":"40","PRV_NAME_T":"จ.ขอนแก่น","SIZE":"M","X":"102.71349696941","Y":"16.04108666491*"}},
{"type":"Feature","geometry":{"type":"Point","coordinates":[102.61877887594443,16.108280112337354]},"properties":{"Irr_Project_Name_T":"อ่างเก็บน้ำหนองกรองแก้ว","OBJECTID":348,"PRJ_CODE":"06400203942524","RID_CODE":"06","RID_NAME":"สำนักชลประทานที่ 6","PRV_CODE":"40","PRV_NAME_T":"จ.ขอนแก่น","SIZE":"M","X":"102.6187788759*","Y":"16.10828011233*"}},
{"type":"Feature","geometry":{"type":"Point","coordinates":[102.68829176485315,16.175299697423156]},"properties":{"Irr_Project_Name_T":"อ่างเก็บน้ำบีงแก่งละว้า","OBJECTID":349,"PRJ_CODE":"06400203952529","RID_CODE":"06","RID_NAME":"สำนักชลประทานที่ 6","PRV_CODE":"40","PRV_NAME_T":"จ.ขอนแก่น","SIZE":"M","X":"102.6882917648*","Y":"16.17529969742*"}},
{"type":"Feature","geometry":{"type":"Point","coordinates":[102.58802246846221,16.454691377804863]},"properties":{"Irr_Project_Name_T":"อ่างเก็บน้ำกกม่วง","OBJECTID":350,"PRJ_CODE":"06400203962497","RID_CODE":"06","RID_NAME":"สำนักชลประทานที่ 6","PRV_CODE":"40","PRV_NAME_T":"จ.ขอนแก่น","SIZE":"M","X":"102.5880224684*","Y":"16.45469137780*"}},
{"type":"Feature","geometry":{"type":"Point","coordinates":[102.87633608993866,16.337897564021432]},"properties":{"Irr_Project_Name_T":"อ่างเก็บน้ำท่าพระ","OBJECTID":351,"PRJ_CODE":"06400203972498","RID_CODE":"06","RID_NAME":"สำนักชลประทานที่ 6","PRV_CODE":"40","PRV_NAME_T":"จ.ขอนแก่น","SIZE":"M","X":"102.8763360899*","Y":"16.33789756402*"}},
{"type":"Feature","geometry":{"type":"Point","coordinates":[102.18183651134598,16.515808878676864]},"properties":{"Irr_Project_Name_T":"อ่างเก็บน้ำโสกสำอาง","OBJECTID":352,"PRJ_CODE":"06400203982496","RID_CODE":"06","RID_NAME":"สำนักชลประทานที่ 6","PRV_CODE":"40","PRV_NAME_T":"จ.ขอนแก่น","SIZE":"M","X":"102.1818365113*","Y":"16.51580887867*"}},
{"type":"Feature","geometry":{"type":"Point","coordinates":[102.02769776054328,16.554515743606714]},"properties":{"Irr_Project_Name_T":"น้ำเชิญ","OBJECTID":353,"PRJ_CODE":"06400203992522","RID_CODE":"06","RID_NAME":"สำนักชลประทานที่ 6","PRV_CODE":"40","PRV_NAME_T":"จ.ขอนแก่น","SIZE":"M","X":"102.0276977605*","Y":"16.55451574360*"}},
{"type":"Feature","geometry":{"type":"Point","coordinates":[102.13648350361086,16.727690203140412]},"properties":{"Irr_Project_Name_T":"อ่างเก็บน้ำห้วยลอมไผ่","OBJECTID":354,"PRJ_CODE":"06400204002533","RID_CODE":"06","RID_NAME":"สำนักชลประทานที่ 6","PRV_CODE":"40","PRV_NAME_T":"จ.ขอนแก่น","SIZE":"M","X":"102.1364835036*","Y":"16.72769020314*"}},
{"type":"Feature","geometry":{"type":"Point","coordinates":[102.81551109356218,16.735679739728255]},"properties":{"Irr_Project_Name_T":"อ่างเก็บน้ำห้วยเสียว","OBJECTID":355,"PRJ_CODE":"06400204022494","RID_CODE":"06","RID_NAME":"สำนักชลประทานที่ 6","PRV_CODE":"40","PRV_NAME_T":"จ.ขอนแก่น","SIZE":"M","X":"102.8155110935*","Y":"16.73567973972*"}},
{"type":"Feature","geometry":{"type":"Point","coordinates":[102.84366854756547,16.427912997287024]},"properties":{"Irr_Project_Name_T":"อ่างเก็บน้ำหนองหัวช้าง","OBJECTID":356,"PRJ_CODE":"06400204032496","RID_CODE":"06","RID_NAME":"สำนักชลประทานที่ 6","PRV_CODE":"40","PRV_NAME_T":"จ.ขอนแก่น","SIZE":"M","X":"102.8436685475*","Y":"16.427912997287"}},
{"type":"Feature","geometry":{"type":"Point","coordinates":[102.86105920651721,16.48369645902443]},"properties":{"Irr_Project_Name_T":"อ่างเก็บน้ำหนองช่องแมว","OBJECTID":357,"PRJ_CODE":"06400204042499","RID_CODE":"06","RID_NAME":"สำนักชลประทานที่ 6","PRV_CODE":"40","PRV_NAME_T":"จ.ขอนแก่น","SIZE":"M","X":"102.8610592065*","Y":"16.48369645902*"}},
{"type":"Feature","geometry":{"type":"Point","coordinates":[103.30296072425807,16.183522196192428]},"properties":{"Irr_Project_Name_T":"บ้านตูม-บ้านติ้ว","OBJECTID":358,"PRJ_CODE":"06440204142498","RID_CODE":"06","RID_NAME":"สำนักชลประทานที่ 6","PRV_CODE":"44","PRV_NAME_T":"จ.มหาสารคาม","SIZE":"M","X":"103.3029607242*","Y":"16.18352219619*"}},
{"type":"Feature","geometry":{"type":"Point","coordinates":[103.3162763238933,16.13491285394508]},"properties":{"Irr_Project_Name_T":"อ่างเก็บน้ำหนองแวงน้อย","OBJECTID":359,"PRJ_CODE":"06440204152496","RID_CODE":"06","RID_NAME":"สำนักชลประทานที่ 6","PRV_CODE":"44","PRV_NAME_T":"จ.มหาสารคาม","SIZE":"M","X":"103.3162763238*","Y":"16.13491285394*"}},
{"type":"Feature","geometry":{"type":"Point","coordinates":[103.015245863306,16.366563117893634]},"properties":{"Irr_Project_Name_T":"ฝายมหาสารคาม","OBJECTID":360,"PRJ_CODE":"06440204182546","RID_CODE":"06","RID_NAME":"สำนักชลประทานที่ 6","PRV_CODE":"44","PRV_NAME_T":"จ.มหาสารคาม","SIZE":"M","X":"103.0152458633*","Y":"16.36656311789*"}},
{"type":"Feature","geometry":{"type":"Point","coordinates":[104.27476890336226,16.380655906245124]},"properties":{"Irr_Project_Name_T":"อ่างเก็บน้ำห้วยพุงใหญ่","OBJECTID":363,"PRJ_CODE":"06450204312546","RID_CODE":"06","RID_NAME":"สำนักชลประทานที่ 6","PRV_CODE":"45","PRV_NAME_T":"จ.ร้อยเอ็ด","SIZE":"M","X":"104.2747689033*","Y":"16.38065590624*"}},
{"type":"Feature","geometry":{"type":"Point","coordinates":[103.6137699433283,16.41919257537711]},"properties":{"Irr_Project_Name_T":"ร่องกุดอ้อ","OBJECTID":365,"PRJ_CODE":"06460204402492","RID_CODE":"06","RID_NAME":"สำนักชลประทานที่ 6","PRV_CODE":"46","PRV_NAME_T":"จ.กาฬสินธุ์","SIZE":"M","X":"103.6137699433*","Y":"16.41919257537*"}},
{"type":"Feature","geometry":{"type":"Point","coordinates":[103.54062568013109,16.43869619597274]},"properties":{"Irr_Project_Name_T":"อ่างเก็บน้ำร่องเกษตร","OBJECTID":366,"PRJ_CODE":"06460204412496","RID_CODE":"06","RID_NAME":"สำนักชลประทานที่ 6","PRV_CODE":"46","PRV_NAME_T":"จ.กาฬสินธุ์","SIZE":"M","X":"103.5406256801*","Y":"16.43869619597*"}},
{"type":"Feature","geometry":{"type":"Point","coordinates":[103.3710784292262,16.41058027356081]},"properties":{"Irr_Project_Name_T":"อ่างเก็บน้ำหนองหมาจอก","OBJECTID":367,"PRJ_CODE":"06460204452494","RID_CODE":"06","RID_NAME":"สำนักชลประทานที่ 6","PRV_CODE":"46","PRV_NAME_T":"จ.กาฬสินธุ์","SIZE":"M","X":"103.3710784292*","Y":"16.41058027356*"}},
{"type":"Feature","geometry":{"type":"Point","coordinates":[103.69127159720648,16.535595198459703]},"properties":{"Irr_Project_Name_T":"อ่างเก็บน้ำห้วยแกง","OBJECTID":368,"PRJ_CODE":"06460204462530","RID_CODE":"06","RID_NAME":"สำนักชลประทานที่ 6","PRV_CODE":"46","PRV_NAME_T":"จ.กาฬสินธุ์","SIZE":"M","X":"103.6912715972*","Y":"16.53559519845*"}},
{"type":"Feature","geometry":{"type":"Point","coordinates":[103.73917595820399,16.798342714744535]},"properties":{"Irr_Project_Name_T":"อ่างเก็บน้ำห้วยสังเคียบ","OBJECTID":369,"PRJ_CODE":"06460204512540","RID_CODE":"06","RID_NAME":"สำนักชลประทานที่ 6","PRV_CODE":"46","PRV_NAME_T":"จ.กาฬสินธุ์","SIZE":"M","X":"103.7391759582*","Y":"16.79834271474*"}},
{"type":"Feature","geometry":{"type":"Point","coordinates":[103.473103841669,16.200237008331328]},"properties":{"Irr_Project_Name_T":"ฝายวังยาง","OBJECTID":370,"PRJ_CODE":"06460204522546","RID_CODE":"06","RID_NAME":"สำนักชลประทานที่ 6","PRV_CODE":"46","PRV_NAME_T":"จ.กาฬสินธุ์","SIZE":"M","X":"103.4731038416*","Y":"16.20023700833*"}},
{"type":"Feature","geometry":{"type":"Point","coordinates":[103.74814478905085,16.049322268607852]},"properties":{"Irr_Project_Name_T":"อ่างเก็บน้ำธวัชชัย","OBJECTID":371,"PRJ_CODE":"06450204292495","RID_CODE":"06","RID_NAME":"สำนักชลประทานที่ 6","PRV_CODE":"45","PRV_NAME_T":"จ.ร้อยเอ็ด","SIZE":"M","X":"103.7481447890*","Y":"16.04932226860*"}},
{"type":"Feature","geometry":{"type":"Point","coordinates":[103.6826854548699,16.029055476129372]},"properties":{"Irr_Project_Name_T":"อ่างเก็บน้ำหนองหญ้าม้า","OBJECTID":372,"PRJ_CODE":"06450204282499","RID_CODE":"06","RID_NAME":"สำนักชลประทานที่ 6","PRV_CODE":"45","PRV_NAME_T":"จ.ร้อยเอ็ด","SIZE":"M","X":"103.68268545487","Y":"16.02905547612*"}},
{"type":"Feature","geometry":{"type":"Point","coordinates":[103.27605577585342,16.179719451591495]},"properties":{"Irr_Project_Name_T":"อ่างเก็บน้ำแก่งเลิงจาน","OBJECTID":373,"PRJ_CODE":"06440204132496","RID_CODE":"06","RID_NAME":"สำนักชลประทานที่ 6","PRV_CODE":"44","PRV_NAME_T":"จ.มหาสารคาม","SIZE":"M","X":"103.2760557758*","Y":"16.17971945159*"}},
{"type":"Feature","geometry":{"type":"Point","coordinates":[103.41743860570716,16.16369498513552]},"properties":{"Irr_Project_Name_T":"อ่างเก็บน้ำหนองกระทุ่ม","OBJECTID":374,"PRJ_CODE":"06440204262502","RID_CODE":"06","RID_NAME":"สำนักชลประทานที่ 6","PRV_CODE":"44","PRV_NAME_T":"จ.มหาสารคาม","SIZE":"M","X":"103.4174386057*","Y":"16.16369498513*"}},
{"type":"Feature","geometry":{"type":"Point","coordinates":[103.16096747776692,16.091001726548484]},"properties":{"Irr_Project_Name_T":"อ่างเก็บน้ำร่องหัวช้าง","OBJECTID":376,"PRJ_CODE":"06440204102497","RID_CODE":"06","RID_NAME":"สำนักชลประทานที่ 6","PRV_CODE":"44","PRV_NAME_T":"จ.มหาสารคาม","SIZE":"M","X":"103.1609674777*","Y":"16.09100172654*"}},
{"type":"Feature","geometry":{"type":"Point","coordinates":[103.2676978436806,16.05181564257788]},"properties":{"Irr_Project_Name_T":"อ่างเก็บน้ำห้วยคะคาง","OBJECTID":378,"PRJ_CODE":"06440204122500","RID_CODE":"06","RID_NAME":"สำนักชลประทานที่ 6","PRV_CODE":"44","PRV_NAME_T":"จ.มหาสารคาม","SIZE":"M","X":"103.2676978436*","Y":"16.05181564257*"}},
{"type":"Feature","geometry":{"type":"Point","coordinates":[103.39526573972216,16.029097975391323]},"properties":{"Irr_Project_Name_T":"อ่างเก็บน้ำหนองแกดำ","OBJECTID":379,"PRJ_CODE":"06440204162496","RID_CODE":"06","RID_NAME":"สำนักชลประทานที่ 6","PRV_CODE":"44","PRV_NAME_T":"จ.มหาสารคาม","SIZE":"M","X":"103.3952657397*","Y":"16.02909797539*"}},
{"type":"Feature","geometry":{"type":"Point","coordinates":[102.77047471193845,16.065189644186773]},"properties":{"Irr_Project_Name_T":"อ่างเก็บน้ำห้วยทราย","OBJECTID":390,"PRJ_CODE":"06400204072507","RID_CODE":"06","RID_NAME":"สำนักชลประทานที่ 6","PRV_CODE":"36","PRV_NAME_T":"จ.ขอนแก่น","SIZE":"M","X":"102.7704747119*","Y":"16.06518964418*"}},
{"type":"Feature","geometry":{"type":"Point","coordinates":[103.53099887020176,16.486565893501222]},"properties":{"Irr_Project_Name_T":"อ่างเก็บน้ำห้วยสีทน","OBJECTID":391,"PRJ_CODE":"06460204392502","RID_CODE":"06","RID_NAME":"สำนักชลประทานที่ 6","PRV_CODE":"46","PRV_NAME_T":"จ.กาฬสินธุ์","SIZE":"M","X":"103.5309988702*","Y":"16.48656589350*"}},
{"type":"Feature","geometry":{"type":"Point","coordinates":[103.3445545541494,16.396421450689445]},"properties":{"Irr_Project_Name_T":"อ่างเก็บน้ำบึงอร่าม","OBJECTID":392,"PRJ_CODE":"06460204442495","RID_CODE":"06","RID_NAME":"สำนักชลประทานที่ 6","PRV_CODE":"46","PRV_NAME_T":"จ.กาฬสินธุ์","SIZE":"M","X":"103.3445545541*","Y":"16.39642145068*"}},
{"type":"Feature","geometry":{"type":"Point","coordinates":[103.29807668878823,16.31690864651688]},"properties":{"Irr_Project_Name_T":"อ่างเก็บน้ำหนองบัว","OBJECTID":393,"PRJ_CODE":"06440204092497","RID_CODE":"06","RID_NAME":"สำนักชลประทานที่ 6","PRV_CODE":"44","PRV_NAME_T":"จ.มหาสารคาม","SIZE":"M","X":"103.2980766887*","Y":"16.31690864651*"}},
{"type":"Feature","geometry":{"type":"Point","coordinates":[103.28112834429771,16.433079866842434]},"properties":{"Irr_Project_Name_T":"อ่างเก็บน้ำหนองบ้านสา","OBJECTID":394,"PRJ_CODE":"06460204432496","RID_CODE":"06","RID_NAME":"สำนักชลประทานที่ 6","PRV_CODE":"46","PRV_NAME_T":"จ.กาฬสินธุ์","SIZE":"M","X":"103.2811283442*","Y":"16.43307986684*"}},
{"type":"Feature","geometry":{"type":"Point","coordinates":[103.22542750957194,16.558874907750862]},"properties":{"Irr_Project_Name_T":"อ่างเก็บน้ำห้วยวังลิ้นฟ้า","OBJECTID":395,"PRJ_CODE":"06460204422533","RID_CODE":"06","RID_NAME":"สำนักชลประทานที่ 6","PRV_CODE":"46","PRV_NAME_T":"จ.กาฬสินธุ์","SIZE":"M","X":"103.2254275095*","Y":"16.55887490775*"}},
{"type":"Feature","geometry":{"type":"Point","coordinates":[102.91721949858106,16.20814618060183]},"properties":{"Irr_Project_Name_T":"อ่างเก็บน้ำห้วยขอนสัก","OBJECTID":396,"PRJ_CODE":"06440204172544","RID_CODE":"06","RID_NAME":"สำนักชลประทานที่ 6","PRV_CODE":"44","PRV_NAME_T":"จ.มหาสารคาม","SIZE":"M","X":"102.9172194985*","Y":"16.20814618060*"}},
{"type":"Feature","geometry":{"type":"Point","coordinates":[103.10943489460476,16.417074573932496]},"properties":{"Irr_Project_Name_T":"อ่างเก็บน้ำหนองเทวราช","OBJECTID":397,"PRJ_CODE":"06440204082507","RID_CODE":"06","RID_NAME":"สำนักชลประทานที่ 6","PRV_CODE":"44","PRV_NAME_T":"จ.มหาสารคาม","SIZE":"M","X":"103.1094348946*","Y":"16.41707457393*"}},
{"type":"Feature","geometry":{"type":"Point","coordinates":[103.17521826261282,16.130369048193074]},"properties":{"Irr_Project_Name_T":"อ่างเก็บน้ำห้วยประดู่","OBJECTID":398,"PRJ_CODE":"06440204112502","RID_CODE":"06","RID_NAME":"สำนักชลประทานที่ 6","PRV_CODE":"44","PRV_NAME_T":"จ.มหาสารคาม","SIZE":"M","X":"103.1752182626*","Y":"16.13036904819*"}},
{"type":"Feature","geometry":{"type":"Point","coordinates":[103.46343806141743,16.118966475622415]},"properties":{"Irr_Project_Name_T":"อ่างเก็บน้ำห้วยแอ่ง","OBJECTID":399,"PRJ_CODE":"06450204272530","RID_CODE":"06","RID_NAME":"สำนักชลประทานที่ 6","PRV_CODE":"45","PRV_NAME_T":"จ.ร้อยเอ็ด","SIZE":"M","X":"103.4634380614*","Y":"16.11896647562*"}},
{"type":"Feature","geometry":{"type":"Point","coordinates":[103.56433975747387,16.366856386812856]},"properties":{"Irr_Project_Name_T":"อ่างเก็บน้ำห้วยโพธิ์","OBJECTID":400,"PRJ_CODE":"06460204532496","RID_CODE":"06","RID_NAME":"สำนักชลประทานที่ 6","PRV_CODE":"46","PRV_NAME_T":"จ.กาฬสินธุ์","SIZE":"M","X":"103.5643397574*","Y":"16.36685638681*"}},
{"type":"Feature","geometry":{"type":"Point","coordinates":[103.79984701222992,16.647145627468774]},"properties":{"Irr_Project_Name_T":"อ่างเก็บน้ำห้วยสานาเวียง","OBJECTID":401,"PRJ_CODE":"06460204472511","RID_CODE":"06","RID_NAME":"สำนักชลประทานที่ 6","PRV_CODE":"46","PRV_NAME_T":"จ.กาฬสินธุ์","SIZE":"M","X":"103.79984701223","Y":"16.64714562746*"}},
{"type":"Feature","geometry":{"type":"Point","coordinates":[103.86135841525874,16.692654931979575]},"properties":{"Irr_Project_Name_T":"อ่างเก็บน้ำห้วยสะทด","OBJECTID":402,"PRJ_CODE":"06460204502512","RID_CODE":"06","RID_NAME":"สำนักชลประทานที่ 6","PRV_CODE":"46","PRV_NAME_T":"จ.กาฬสินธุ์","SIZE":"M","X":"103.8613584152*","Y":"16.69265493197*"}},
{"type":"Feature","geometry":{"type":"Point","coordinates":[103.89095383035504,16.672136845539058]},"properties":{"Irr_Project_Name_T":"อ่างเก็บน้ำห้วยฝา","OBJECTID":403,"PRJ_CODE":"06460204492509","RID_CODE":"06","RID_NAME":"สำนักชลประทานที่ 6","PRV_CODE":"46","PRV_NAME_T":"จ.กาฬสินธุ์","SIZE":"M","X":"103.8909538303*","Y":"16.67213684553*"}},
{"type":"Feature","geometry":{"type":"Point","coordinates":[103.90590187127441,16.661039845512505]},"properties":{"Irr_Project_Name_T":"อ่างเก็บน้ำห้วยผึ้ง","OBJECTID":404,"PRJ_CODE":"06460204482509","RID_CODE":"06","RID_NAME":"สำนักชลประทานที่ 6","PRV_CODE":"46","PRV_NAME_T":"จ.กาฬสินธุ์","SIZE":"M","X":"103.9059018712*","Y":"16.66103984551*"}},
{"type":"Feature","geometry":{"type":"Point","coordinates":[101.98565533442621,15.899479510870776]},"properties":{"Irr_Project_Name_T":"อ่างเก็บน้ำลำช่อระกา","OBJECTID":405,"PRJ_CODE":"06360203852512","RID_CODE":"06","RID_NAME":"สำนักชลประทานที่ 6","PRV_CODE":"36","PRV_NAME_T":"จ.ชัยภูมิ","SIZE":"M","X":"101.9856553344*","Y":"15.89947951087*"}},
{"type":"Feature","geometry":{"type":"Point","coordinates":[101.88329307011912,15.785880127665791]},"properties":{"Irr_Project_Name_T":"อ่างเก็บน้ำบาซ่าน","OBJECTID":406,"PRJ_CODE":"06360203842499","RID_CODE":"06","RID_NAME":"สำนักชลประทานที่ 6","PRV_CODE":"36","PRV_NAME_T":"จ.ชัยภูมิ","SIZE":"M","X":"101.8832930701*","Y":"15.78588012766*"}},
{"type":"Feature","geometry":{"type":"Point","coordinates":[101.60278920176029,15.556678223021606]},"properties":{"Irr_Project_Name_T":"อ่างเก็บน้ำห้วยทราย (พร้อมระบบ)","OBJECTID":407,"PRJ_CODE":"06360203902537","RID_CODE":"06","RID_NAME":"สำนักชลประทานที่ 6","PRV_CODE":"36","PRV_NAME_T":"จ.ชัยภูมิ","SIZE":"M","X":"101.60278920176","Y":"15.55667822302*"}},
{"type":"Feature","geometry":{"type":"Point","coordinates":[101.54169183850757,15.49250603092861]},"properties":{"Irr_Project_Name_T":"อ่างเก็บน้ำลำคันฉู","OBJECTID":408,"PRJ_CODE":"06360203922539","RID_CODE":"06","RID_NAME":"สำนักชลประทานที่ 6","PRV_CODE":"36","PRV_NAME_T":"จ.ชัยภูมิ","SIZE":"M","X":"101.5416918385*","Y":"15.49250603092*"}},
{"type":"Feature","geometry":{"type":"Point","coordinates":[101.87466308133617,15.53267050803754]},"properties":{"Irr_Project_Name_T":"อ่างเก็บน้ำห้วยทองหลาง","OBJECTID":409,"PRJ_CODE":"06360203832494","RID_CODE":"06","RID_NAME":"สำนักชลประทานที่ 6","PRV_CODE":"36","PRV_NAME_T":"จ.ชัยภูมิ","SIZE":"M","X":"101.8746630813*","Y":"15.53267050803*"}},
{"type":"Feature","geometry":{"type":"Point","coordinates":[102.29567117788264,16.36262684465322]},"properties":{"Irr_Project_Name_T":"อ่างเก็บน้ำบ้านเพชร","OBJECTID":410,"PRJ_CODE":"06360203892516","RID_CODE":"06","RID_NAME":"สำนักชลประทานที่ 6","PRV_CODE":"36","PRV_NAME_T":"จ.ชัยภูมิ","SIZE":"M","X":"102.2956711778*","Y":"16.36262684465*"}},
{"type":"Feature","geometry":{"type":"Point","coordinates":[101.85954355499115,16.319309482946323]},"properties":{"Irr_Project_Name_T":"น้ำพรม","OBJECTID":411,"PRJ_CODE":"06360203882538","RID_CODE":"06","RID_NAME":"สำนักชลประทานที่ 6","PRV_CODE":"36","PRV_NAME_T":"จ.ชัยภูมิ","SIZE":"M","X":"101.8595435549*","Y":"16.31930948294*"}},
{"type":"Feature","geometry":{"type":"Point","coordinates":[102.37629987523911,16.69912749393876]},"properties":{"Irr_Project_Name_T":"อ่างเก็บน้ำโสกรวก","OBJECTID":412,"PRJ_CODE":"06400204012496","RID_CODE":"06","RID_NAME":"สำนักชลประทานที่ 6","PRV_CODE":"40","PRV_NAME_T":"จ.ขอนแก่น","SIZE":"M","X":"102.3762998752*","Y":"16.69912749393*"}},
{"type":"Feature","geometry":{"type":"Point","coordinates":[104.27971514853533,16.348619020651313]},"properties":{"Irr_Project_Name_T":"ห้วยเดื่อ","OBJECTID":413,"PRJ_CODE":"06450208000000","RID_CODE":"06","RID_NAME":"สำนักชลประทานที่ 6","PRV_CODE":"45","PRV_NAME_T":"จ.ร้อยเอ็ด","SIZE":"M","X":"104.2797151485*","Y":"16.34861902065*"}},
{"type":"Feature","geometry":{"type":"Point","coordinates":[102.62155748698848,16.574277214222093]},"properties":{"Irr_Project_Name_T":"อ่างเก็บน้ำห้วยใหญ่","OBJECTID":415,"PRJ_CODE":"06400204062500","RID_CODE":"06","RID_NAME":"สำนักชลประทานที่ 6","PRV_CODE":"40","PRV_NAME_T":"จ.ขอนแก่น","SIZE":"M","X":"102.6215574869*","Y":"16.57427721422*"}},
{"type":"Feature","geometry":{"type":"Point","coordinates":[104.48938293027805,15.399438953345054]},"properties":{"Irr_Project_Name_T":"อ่างเก็บน้ำหลองเหล่าหิน","OBJECTID":453,"PRJ_CODE":"07340204542494","RID_CODE":"07","RID_NAME":"สำนักชลประทานที่ 7","PRV_CODE":"34","PRV_NAME_T":"จ.อุบลราชธานี","SIZE":"M","X":"104.4893829302*","Y":"15.39943895334*"}},
{"type":"Feature","geometry":{"type":"Point","coordinates":[102.33589078433226,15.73964760365402]},"properties":{"Irr_Project_Name_T":"สูงเนิน","OBJECTID":460,"PRJ_CODE":"08300205002499","RID_CODE":"08","RID_NAME":"สำนักชลประทานที่ 8","PRV_CODE":"30","PRV_NAME_T":"จ.นครราชสีมา","SIZE":"M","X":"102.3358907843*","Y":"15.739647603654"}},
{"type":"Feature","geometry":{"type":"Point","coordinates":[102.20356482175919,15.642051167027773]},"properties":{"Irr_Project_Name_T":"อ่างเก็บน้ำห้วยยางพะไล","OBJECTID":522,"PRJ_CODE":"08300204942537","RID_CODE":"08","RID_NAME":"สำนักชลประทานที่ 8","PRV_CODE":"30","PRV_NAME_T":"จ.นครราชสีมา","SIZE":"M","X":"102.2035648217*","Y":"15.64205116702*"}}
]}