{
"type": "FeatureCollection",
"name": "Weir2",
"crs": { "type": "name", "properties": { "name": "urn:ogc:def:crs:OGC:1.3:CRS84" } },
"features": [
{ "type": "Feature", "properties": { "Name": "716+147,โนนสะอาด,คอนสวรรค์,ชัยภูมิ,401030,ฝาย", "ATTR_1": "262", "ATTR_2": "716+147", "ATTR_3": "โนนสะอาด", "ATTR_4": "คอนสวรรค์", "ATTR_5": "ชัยภูมิ", "ATTR_6": "0401030", "ELEVATION": 165.085, "ATTR_7": "ฝาย", "LAYER": null }, "geometry": { "type": "Point", "coordinates": [ 102.304377650094111, 15.791202395087083 ] } },
{ "type": "Feature", "properties": { "Name": "799+482,กะฮาด,เนินสง่า,ชัยภูมิ,401053,ฝาย", "ATTR_1": "295", "ATTR_2": "799+482", "ATTR_3": "กะฮาด", "ATTR_4": "เนินสง่า", "ATTR_5": "ชัยภูมิ", "ATTR_6": "0401053", "ELEVATION": 177.053, "ATTR_7": "ฝาย", "LAYER": null }, "geometry": { "type": "Point", "coordinates": [ 102.039941033674666, 15.639442739603449 ] } },
{ "type": "Feature", "properties": { "Name": "848+092,ส้มป่อย,จัตุรัส,ชัยภูมิ,401074,ฝาย", "ATTR_1": "320", "ATTR_2": "848+092", "ATTR_3": "ส้มป่อย", "ATTR_4": "จัตุรัส", "ATTR_5": "ชัยภูมิ", "ATTR_6": "0401074", "ELEVATION": 188.481, "ATTR_7": "ฝาย", "LAYER": null }, "geometry": { "type": "Point", "coordinates": [ 101.853301869235551, 15.719042788527315 ] } },
{ "type": "Feature", "properties": { "Name": "14+063 ลำน้ำพวย1 นากอก ศรีบุญเรือง หนองบัวลำภู ฝาย", "ATTR_1": "14+063", "ATTR_2": "ลำน้ำพวย1", "ATTR_3": "นากอก", "ATTR_4": "ศรีบุญเรือง", "ATTR_5": "หนองบัวลำภู", "ATTR_6": "ฝาย", "ELEVATION": 192.209, "ATTR_7": null, "LAYER": "Unknown Point Feature" }, "geometry": { "type": "Point", "coordinates": [ 102.224905980856363, 16.95508620332344 ] } },
{ "type": "Feature", "properties": { "Name": "24+803 ลำน้ำพวย1 โนนสะอาด ศรีบุญเรือง หนองบัวลำภู ฝาย", "ATTR_1": "24+803", "ATTR_2": "ลำน้ำพวย1", "ATTR_3": "โนนสะอาด", "ATTR_4": "ศรีบุญเรือง", "ATTR_5": "หนองบัวลำภู", "ATTR_6": "ฝาย", "ELEVATION": 201.643, "ATTR_7": null, "LAYER": "Unknown Point Feature" }, "geometry": { "type": "Point", "coordinates": [ 102.196189356163543, 17.006307435547548 ] } },
{ "type": "Feature", "properties": { "Name": "29+066 ลำน้ำพวย1 โนนสะอาด ศรีบุญเรือง หนองบัวลำภู ฝาย", "ATTR_1": "29+066", "ATTR_2": "ลำน้ำพวย1", "ATTR_3": "โนนสะอาด", "ATTR_4": "ศรีบุญเรือง", "ATTR_5": "หนองบัวลำภู", "ATTR_6": "ฝาย", "ELEVATION": 209.686, "ATTR_7": null, "LAYER": "Unknown Point Feature" }, "geometry": { "type": "Point", "coordinates": [ 102.183925048758525, 17.029467962619552 ] } },
{ "type": "Feature", "properties": { "Name": "5+704 น้ำพวยส่วน2 นากอก ศรีบุญเรือง หนองบัวลำภู ฝาย", "ATTR_1": "05+704", "ATTR_2": "น้ำพวยส่วน2", "ATTR_3": "นากอก", "ATTR_4": "ศรีบุญเรือง", "ATTR_5": "หนองบัวลำภู", "ATTR_6": "ฝาย", "ELEVATION": 190.716, "ATTR_7": null, "LAYER": "Unknown Point Feature" }, "geometry": { "type": "Point", "coordinates": [ 102.210847562916982, 16.902510128115679 ] } },
{ "type": "Feature", "properties": { "Name": "7+502 น้ำพวยส่วน2 นากอก ศรีบุญเรือง หนองบัวลำภู ฝาย", "ATTR_1": "07+502", "ATTR_2": "น้ำพวยส่วน2", "ATTR_3": "นากอก", "ATTR_4": "ศรีบุญเรือง", "ATTR_5": "หนองบัวลำภู", "ATTR_6": "ฝาย", "ELEVATION": 192.947, "ATTR_7": null, "LAYER": "Unknown Point Feature" }, "geometry": { "type": "Point", "coordinates": [ 102.203027536810481, 16.902675072578653 ] } },
{ "type": "Feature", "properties": { "Name": "10+985 น้ำพวยส่วน2 นากอก ศรีบุญเรือง หนองบัวลำภู ฝาย", "ATTR_1": "10+985", "ATTR_2": "น้ำพวยส่วน2", "ATTR_3": "นากอก", "ATTR_4": "ศรีบุญเรือง", "ATTR_5": "หนองบัวลำภู", "ATTR_6": "ฝาย", "ELEVATION": 196.92, "ATTR_7": null, "LAYER": "Unknown Point Feature" }, "geometry": { "type": "Point", "coordinates": [ 102.18563766643426, 16.910673593202326 ] } },
{ "type": "Feature", "properties": { "Name": "1+097 น้ำพวยส่วน3 นากอก ศรีบุญเรือง หนองบัวลำภู ฝาย", "ATTR_1": "1+097", "ATTR_2": "น้ำพวยส่วน3", "ATTR_3": "นากอก", "ATTR_4": "ศรีบุญเรือง", "ATTR_5": "หนองบัวลำภู", "ATTR_6": "ฝาย", "ELEVATION": 194.031, "ATTR_7": null, "LAYER": "Unknown Point Feature" }, "geometry": { "type": "Point", "coordinates": [ 102.225486444417484, 16.94241382973803 ] } },
{ "type": "Feature", "properties": { "Name": "104+236 ลำน้ำพรม กุดเลาะ เกษตรสมบูรณ์ ชัยภูมิ ฝาย", "ATTR_1": "104+236", "ATTR_2": "ลำน้ำพรม", "ATTR_3": "กุดเลาะ", "ATTR_4": "เกษตรสมบูรณ์", "ATTR_5": "ชัยภูมิ", "ATTR_6": "ฝาย", "ELEVATION": 226.179, "ATTR_7": null, "LAYER": "Unknown Point Feature" }, "geometry": { "type": "Point", "coordinates": [ 101.964943077463417, 16.293352860784015 ] } },
{ "type": "Feature", "properties": { "Name": "2+633 ห้วยสามหมอ โพธิ์ชัย โคกโพธิ์ชัย ขอนแก่น ฝาย", "ATTR_1": "2+633", "ATTR_2": "ห้วยสามหมอ", "ATTR_3": "โพธิ์ชัย", "ATTR_4": "โคกโพธิ์ชัย", "ATTR_5": "ขอนแก่น", "ATTR_6": "ฝาย", "ELEVATION": 161.48, "ATTR_7": null, "LAYER": "Unknown Point Feature" }, "geometry": { "type": "Point", "coordinates": [ 102.383619030269472, 15.996971614929942 ] } },
{ "type": "Feature", "properties": { "Name": "8+993 ห้วยสามหมอ ศรีสำราญ คอนสวรรค์ ชัยภูมิ ฝาย", "ATTR_1": "8+993", "ATTR_2": "ห้วยสามหมอ", "ATTR_3": "ศรีสำราญ", "ATTR_4": "คอนสวรรค์", "ATTR_5": "ชัยภูมิ", "ATTR_6": "ฝาย", "ELEVATION": 173.384, "ATTR_7": null, "LAYER": "Unknown Point Feature" }, "geometry": { "type": "Point", "coordinates": [ 102.364220137177455, 16.001278237129117 ] } },
{ "type": "Feature", "properties": { "Name": "14+810 ห้วยสามหมอ ศรีสำราญ คอนสวรรค์ ชัยภูมิ ฝาย", "ATTR_1": "14+810", "ATTR_2": "ห้วยสามหมอ", "ATTR_3": "ศรีสำราญ", "ATTR_4": "คอนสวรรค์", "ATTR_5": "ชัยภูมิ", "ATTR_6": "ฝาย", "ELEVATION": 170.774, "ATTR_7": null, "LAYER": "Unknown Point Feature" }, "geometry": { "type": "Point", "coordinates": [ 102.351343575578866, 16.024233895135136 ] } },
{ "type": "Feature", "properties": { "Name": "19+815 ห้วยสามหมอ ศรีสำราญ คอนสวรรค์ ชัยภูมิ ฝาย", "ATTR_1": "19+815", "ATTR_2": "ห้วยสามหมอ", "ATTR_3": "ศรีสำราญ", "ATTR_4": "คอนสวรรค์", "ATTR_5": "ชัยภูมิ", "ATTR_6": "ฝาย", "ELEVATION": 174.84, "ATTR_7": null, "LAYER": "Unknown Point Feature" }, "geometry": { "type": "Point", "coordinates": [ 102.330138683997433, 16.032796972246228 ] } },
{ "type": "Feature", "properties": { "Name": "24+674 ห้วยสามหมอ ช่องสามหมอ คอนสวรรค์ ชัยภูมิ ฝาย", "ATTR_1": "24+674", "ATTR_2": "ห้วยสามหมอ", "ATTR_3": "ช่องสามหมอ", "ATTR_4": "คอนสวรรค์", "ATTR_5": "ชัยภูมิ", "ATTR_6": "ฝาย", "ELEVATION": 173.725, "ATTR_7": null, "LAYER": "Unknown Point Feature" }, "geometry": { "type": "Point", "coordinates": [ 102.301255770048485, 16.042457945005175 ] } },
{ "type": "Feature", "properties": { "Name": "20+806 ห้วยเสียว+ห้วยน้อย บุ่งคล้า เมืองชัยภูมิ ชัยภูมิ ฝาย", "ATTR_1": "20+806", "ATTR_2": "ห้วยเสียว+ห้วยน้อย", "ATTR_3": "บุ่งคล้า", "ATTR_4": "เมืองชัยภูมิ", "ATTR_5": "ชัยภูมิ", "ATTR_6": "ฝาย", "ELEVATION": 172.499, "ATTR_7": null, "LAYER": "Unknown Point Feature" }, "geometry": { "type": "Point", "coordinates": [ 102.1302088905001, 15.766950793758976 ] } },
{ "type": "Feature", "properties": { "Name": "20+711 ลำปะทาว บ้านเล่า เมืองชัยภูมิ ชัยภูมิ ฝาย", "ATTR_1": "20+711", "ATTR_2": "ลำปะทาว", "ATTR_3": "บ้านเล่า", "ATTR_4": "เมืองชัยภูมิ", "ATTR_5": "ชัยภูมิ", "ATTR_6": "ฝาย", "ELEVATION": 185.28, "ATTR_7": null, "LAYER": "Unknown Point Feature" }, "geometry": { "type": "Point", "coordinates": [ 102.047055961641192, 15.884036303444681 ] } },
{ "type": "Feature", "properties": { "Name": "28+783 ลำปะทาว นาฝาย เมืองชัยภูมิ ชัยภูมิ ฝาย", "ATTR_1": "28+783", "ATTR_2": "ลำปะทาว", "ATTR_3": "นาฝาย", "ATTR_4": "เมืองชัยภูมิ", "ATTR_5": "ชัยภูมิ", "ATTR_6": "ฝาย", "ELEVATION": 192.467, "ATTR_7": null, "LAYER": "Unknown Point Feature" }, "geometry": { "type": "Point", "coordinates": [ 102.0334241687965, 15.922673862193696 ] } },
{ "type": "Feature", "properties": { "Name": "0+000 นอกลำน้ำ เขวาไร่ นาเชือก มหาสารคาม ฝาย", "ATTR_1": "0+000", "ATTR_2": "นอกลำน้ำ", "ATTR_3": "เขวาไร่", "ATTR_4": "นาเชือก", "ATTR_5": "มหาสารคาม", "ATTR_6": "ฝาย", "ELEVATION": 160.712, "ATTR_7": null, "LAYER": "Unknown Point Feature" }, "geometry": { "type": "Point", "coordinates": [ 102.891194977335573, 16.29315980426427 ] } },
{ "type": "Feature", "properties": { "Name": "0+000 นอกลำน้ำ ขามเปี้ย โพธิ์ชัย ร้อยเอ็ด ฝาย", "ATTR_1": "0+000", "ATTR_2": "นอกลำน้ำ", "ATTR_3": "ขามเปี้ย", "ATTR_4": "โพธิ์ชัย", "ATTR_5": "ร้อยเอ็ด", "ATTR_6": "ฝาย", "ELEVATION": 145.638, "ATTR_7": null, "LAYER": "Unknown Point Feature" }, "geometry": { "type": "Point", "coordinates": [ 103.769756434869976, 16.314397252859223 ] } },
{ "type": "Feature", "properties": { "Name": "0+000 นอกลำน้ำ หนองไผ่ แก้งค้อ ชัยภูมิ ฝาย", "ATTR_1": "0+000", "ATTR_2": "นอกลำน้ำ", "ATTR_3": "หนองไผ่", "ATTR_4": "แก้งค้อ", "ATTR_5": "ชัยภูมิ", "ATTR_6": "ฝาย", "ELEVATION": 202.677, "ATTR_7": null, "LAYER": "Unknown Point Feature" }, "geometry": { "type": "Point", "coordinates": [ 102.297714311935366, 16.153327307676665 ] } },
{ "type": "Feature", "properties": { "Name": "0+000 นอกลำน้ำ หนองซอน เชียงยืน มหาสารคาม ฝาย", "ATTR_1": "0+000", "ATTR_2": "นอกลำน้ำ", "ATTR_3": "หนองซอน", "ATTR_4": "เชียงยืน", "ATTR_5": "มหาสารคาม", "ATTR_6": "ฝาย", "ELEVATION": 144.198, "ATTR_7": null, "LAYER": "Unknown Point Feature" }, "geometry": { "type": "Point", "coordinates": [ 103.182829351799398, 16.334731189295002 ] } },
{ "type": "Feature", "properties": { "Name": "0+000 นอกลำน้ำ บ้านชวน บำเหน็จณรงค์ ชัยภูมิ ฝาย", "ATTR_1": "0+000", "ATTR_2": "นอกลำน้ำ", "ATTR_3": "บ้านชวน", "ATTR_4": "บำเหน็จณรงค์", "ATTR_5": "ชัยภูมิ", "ATTR_6": "ฝาย", "ELEVATION": 211.596, "ATTR_7": null, "LAYER": "Unknown Point Feature" }, "geometry": { "type": "Point", "coordinates": [ 101.662350672042848, 15.463924899071452 ] } }
]
}
