{
"type": "FeatureCollection",
"name": "Rain Station",
"crs": { "type": "name", "properties": { "name": "urn:ogc:def:crs:OGC:1.3:CRS84" } },
"features": [
{ "type": "Feature", "properties": { "FID": 45, "No": 34, "Region": "Hyd 03", "Code": "050221", "Name": "E.6C", "River": "ลำปะทาว", "Basin": "ลุ่มน้ำชี", "Detail": "บ้านตาดโตน", "Amphoe": "อ.เมือง", "Province": "จ.ชัยภูมิ", "Lat": 15.955353, "Long": 102.033439, "Time": "Daily", "F13": "E.6C บ้านตาดโตน อ.เมือง จ.ชัยภูมิ", "น้ำฝนรายปี": 1233.1 }, "geometry": { "type": "Point", "coordinates": [ 102.033439, 15.955353 ] } },
{ "type": "Feature", "properties": { "FID": 48, "No": 37, "Region": "Hyd 03", "Code": "110370", "Name": "อ่างเก็บน้ำห้วยสังเคียบ", "River": null, "Basin": "ลุ่มน้ำชี", "Detail": "บ้านเหล่าภูพาน", "Amphoe": "อ.สมเด็จ", "Province": "จ.กาฬสินธุ์", "Lat": 16.836111, "Long": 103.755556, "Time": "Daily", "F13": "อ่างเก็บน้ำห้วยสังเคียบ บ้านเหล่าภูพาน อ.สมเด็จ จ.กาฬสินธุ์", "น้ำฝนรายปี": 1327.1 }, "geometry": { "type": "Point", "coordinates": [ 103.755556, 16.836111 ] } },
{ "type": "Feature", "properties": { "FID": 50, "No": 39, "Region": "Hyd 03", "Code": "140401", "Name": "ลานจอดรถเครื่องจักรกลหนัก สชป.6", "River": null, "Basin": "ลุ่มน้ำชี", "Detail": "บ้านหนองใหญ่", "Amphoe": "อ.เมือง", "Province": "จ.ขอนแก่น", "Lat": 16.428056, "Long": 102.871111, "Time": "Hourly", "F13": "ลานจอดรถเครื่องจักรกลหนัก สชป.6 บ้านหนองใหญ่ อ.เมือง จ.ขอนแก่น", "น้ำฝนรายปี": 1252.9 }, "geometry": { "type": "Point", "coordinates": [ 102.871111, 16.428056 ] } },
{ "type": "Feature", "properties": { "FID": 51, "No": 40, "Region": "Hyd 03", "Code": "180181", "Name": "E.29", "River": "น้ำพอง", "Basin": "ลุ่มน้ำชี", "Detail": "บ้านผานกเค้า", "Amphoe": "อ.ภูกระดึง", "Province": "จ.เลย", "Lat": 16.847643, "Long": 101.944258, "Time": "Daily", "F13": "E.29 บ้านผานกเค้า อ.ภูกระดึง จ.เลย", "น้ำฝนรายปี": 1294.2 }, "geometry": { "type": "Point", "coordinates": [ 101.944258, 16.847643 ] } },
{ "type": "Feature", "properties": { "FID": 53, "No": 52, "Region": "Hyd 03", "Code": "490301", "Name": "E.18", "River": "แม่น้ำชี", "Basin": "ลุ่มน้ำชี", "Detail": "บ้านท่าสะแบง", "Amphoe": "อ.เขาทุ่งหลวง", "Province": "จ.ร้อยเอ็ด", "Lat": 16.034147, "Long": 103.906943, "Time": "Hourly", "F13": "E.18 บ้านท่าสะแบง อ.เขาทุ่งหลวง จ.ร้อยเอ็ด", "น้ำฝนรายปี": 1418.9 }, "geometry": { "type": "Point", "coordinates": [ 103.906943, 16.034147 ] } },
{ "type": "Feature", "properties": { "FID": 54, "No": 55, "Region": "Hyd 03", "Code": "680350", "Name": "อ่างเก็บน้ำห้วยสามพาด", "River": null, "Basin": "ลุ่มน้ำชี", "Detail": "บ้านมอดินแดง", "Amphoe": "อ.หนองแสง", "Province": "จ.อุดรธานี", "Lat": 17.229627, "Long": 102.942899, "Time": "Daily", "F13": "อ่างเก็บน้ำห้วยสามพาด บ้านมอดินแดง อ.หนองแสง จ.อุดรธานี", "น้ำฝนรายปี": 1310.6 }, "geometry": { "type": "Point", "coordinates": [ 102.942899, 17.229627 ] } }
]
}
