{"type":"FeatureCollection",
"name": "Regulator",
"features": [
{"type":"Feature","geometry":{"type":"Point","coordinates":[101.6808182,15.7374848]},"properties":{"No":20,"Name":"ปตร.พระอาจารย์จื่อ","River":"ลำกระจวน","lat":15.7374848,"long":101.6808182,"Type":"ปตร."}},
{"type":"Feature","geometry":{"type":"Point","coordinates":[102.0324036,16.538742]},"properties":{"No":21,"Name":"ปตร.น้ำเชิญ 2/2","River":"ลำน้ำเชิญ","lat":16.538742,"long":102.0324036,"Type":"ปตร."}},
{"type":"Feature","geometry":{"type":"Point","coordinates":[102.293755,16.4462276]},"properties":{"No":22,"Name":"ปตร.ลำน้ำเชิญ 1/2","River":"ลำน้ำเชิญ","lat":16.4462276,"long":102.293755,"Type":"ปตร."}},
{"type":"Feature","geometry":{"type":"Point","coordinates":[102.4490909,16.5331837]},"properties":{"No":23,"Name":"ปตร.หนองเรือ","River":"ลำน้ำเชิญ","lat":16.5331837,"long":102.4490909,"Type":"ปตร."}},
{"type":"Feature","geometry":{"type":"Point","coordinates":[102.9261987,16.3890447]},"properties":{"No":24,"Name":"ปตร.ห้วยพระคือ D8","River":"ลำน้ำพอง","lat":16.3890447,"long":102.9261987,"Type":"ปตร."}},
{"type":"Feature","geometry":{"type":"Point","coordinates":[103.4476317,16.183188]},"properties":{"No":25,"Name":"ปตร.ปากห้วยคะคาง","River":"คลองคะคาง","lat":16.183188,"long":103.4476317,"Type":"ปตร."}},
{"type":"Feature","geometry":{"type":"Point","coordinates":[103.9105195,15.9822892]},"properties":{"No":26,"Name":"ปตร.บ้านมะแว","River":"คลองน้ำเค็ม","lat":15.9822892,"long":103.9105195,"Type":"ปตร."}},
{"type":"Feature","geometry":{"type":"Point","coordinates":[103.8931711,15.9549871]},"properties":{"No":27,"Name":"ปตร.ห้วยดางเดียว","River":"คลองดางเดียว","lat":15.9549871,"long":103.8931711,"Type":"ปตร."}},
{"type":"Feature","geometry":{"type":"Point","coordinates":[102.3836027,15.9970116]},"properties":{"No":28,"Name":"ปตร.ท่าเอียด","River":"ห้วยสามหมอ","lat":15.9970116,"long":102.3836027,"Type":"ปตร."}},
{"type":"Feature","geometry":{"type":"Point","coordinates":[102.3012549,16.042444]},"properties":{"No":29,"Name":"ปตร.ห้วยสามหมอ","River":"ห้วยสามหมอ","lat":16.042444,"long":102.3012549,"Type":"ปตร."}},
{"type":"Feature","geometry":{"type":"Point","coordinates":[102.2231836,15.7965911]},"properties":{"No":30,"Name":"ปตร.บ้านโนนหวานไหล","River":"ลำน้ำกล่ำ","lat":15.7965911,"long":102.2231836,"Type":"ปตร."}},
{"type":"Feature","geometry":{"type":"Point","coordinates":[103.2394211,16.1964562]},"properties":{"No":31,"Name":"ปตร.ท่าสองคอน","River":"ห้วยประดู่","lat":16.1964562,"long":103.2394211,"Type":"ปตร."}},
{"type":"Feature","geometry":{"type":"Point","coordinates":[103.264908,16.1063991]},"properties":{"No":32,"Name":"ปตร.แก่งเลิงจาน","River":"แก่งเลิงจาน","lat":16.1063991,"long":103.264908,"Type":"ปตร."}},
{"type":"Feature","geometry":{"type":"Point","coordinates":[103.9578926,16.599498]},"properties":{"No":33,"Name":"ปตร.ห้วยผึ้ง","River":"ลำพะยัง","lat":16.599498,"long":103.9578926,"Type":"ปตร."}},
{"type":"Feature","geometry":{"type":"Point","coordinates":[104.0246184,16.7037416]},"properties":{"No":34,"Name":"ปตร.","River":"ลำพะยัง","lat":16.7037416,"long":104.0246184,"Type":"ปตร."}},
{"type":"Feature","geometry":{"type":"Point","coordinates":[104.0405866,16.4133387]},"properties":{"No":35,"Name":"ปตร.บ้านกุดก่วง","River":"น้ำยัง","lat":16.4133387,"long":104.0405866,"Type":"ปตร."}},
{"type":"Feature","geometry":{"type":"Point","coordinates":[103.78914336372168,16.17212947565608]},"properties":{"Name":"95 302+895 พระธาตุ กิ่งอำเภอเชียงขวัญ ร้อยเอ็ด 401096 ประตูน้ำ","ATTR_1":"95","ATTR_2":"302+895","ATTR_3":"พระธาตุ","ATTR_4":"กิ่งอำเภอเชียงขวัญ","ATTR_5":"ร้อยเอ็ด","ATTR_6":"0401096","ELEVATION":null,"ATTR_7":"ประตูน้ำ","LAYER":null}},
{"type":"Feature","geometry":{"type":"Point","coordinates":[103.47366203057925,16.199585493549723]},"properties":{"Name":"128 378+552 ลำชี กิ่งอำเภอฆ้องชัย กาฬสินธุ์ 400940 ประตูน้ำ","ATTR_1":"128","ATTR_2":"378+552","ATTR_3":"ลำชี","ATTR_4":"กิ่งอำเภอฆ้องชัย","ATTR_5":"กาฬสินธุ์","ATTR_6":"0400940","ELEVATION":null,"ATTR_7":"ประตูน้ำ","LAYER":null}},
{"type":"Feature","geometry":{"type":"Point","coordinates":[102.49404683350699,16.07428990108743]},"properties":{"Name":"233 637+061 โนนพะยอม ชนบท ขอนแก่น 400471 ประตูน้ำ","ATTR_1":"233","ATTR_2":"637+061","ATTR_3":"โนนพะยอม","ATTR_4":"ชนบท","ATTR_5":"ขอนแก่น","ATTR_6":"0400471","ELEVATION":null,"ATTR_7":"ประตูน้ำ","LAYER":null}},
{"type":"Feature","geometry":{"type":"Point","coordinates":[104.13228540057428,15.732244032410234]},"properties":{"Name":"62 190+591 แสนสุข พนมไพร ร้อยเอ็ด 400887 ประตูน้ำ","ATTR_1":"62","ATTR_2":"190+591","ATTR_3":"แสนสุข","ATTR_4":"พนมไพร","ATTR_5":"ร้อยเอ็ด","ATTR_6":"0400887","ELEVATION":null,"ATTR_7":"ประตูน้ำ","LAYER":null}},
{"type":"Feature","geometry":{"type":"Point","coordinates":[102.2902376572786,16.9165002167715]},"properties":{"Name":"36+117 ลำน้ำพองบน2 ศรีบุญเรือง ศรีบุญเรือง หนองบัวลำภู ท่อลอดชนิดเหลี่ยม","ATTR_1":"36+117","ATTR_2":"ลำน้ำพองบน2","ATTR_3":"ศรีบุญเรือง","ATTR_4":"ศรีบุญเรือง","ATTR_5":"หนองบัวลำภู","ATTR_6":"ท่อลอดชนิดเหลี่ยม","ELEVATION":186.855,"ATTR_7":null,"LAYER":"Unknown Point Feature"}},
{"type":"Feature","geometry":{"type":"Point","coordinates":[102.26749737286973,16.980883836629843]},"properties":{"Name":"52+218 ลำน้ำพองบน2 หันนางาม ศรีบุญเรือง หนองบัวลำภู ประตูน้ำ","ATTR_1":"52+218","ATTR_2":"ลำน้ำพองบน2","ATTR_3":"หันนางาม","ATTR_4":"ศรีบุญเรือง","ATTR_5":"หนองบัวลำภู","ATTR_6":"ประตูน้ำ","ELEVATION":195.528,"ATTR_7":null,"LAYER":"Unknown Point Feature"}},
{"type":"Feature","geometry":{"type":"Point","coordinates":[102.2759928125816,17.00902375551854]},"properties":{"Name":"57+496 ลำน้ำพองบน2 เมืองใหม่ ศรีบุญเรือง หนองบัวลำภู ประตูน้ำ","ATTR_1":"57+496","ATTR_2":"ลำน้ำพองบน2","ATTR_3":"เมืองใหม่","ATTR_4":"ศรีบุญเรือง","ATTR_5":"หนองบัวลำภู","ATTR_6":"ประตูน้ำ","ELEVATION":200.369,"ATTR_7":null,"LAYER":"Unknown Point Feature"}},
{"type":"Feature","geometry":{"type":"Point","coordinates":[102.43011936212112,16.706206083428697]},"properties":{"Name":"6+303 ลำน้ำพองบน3 บ้านเรือ ภูเวียง ขอนแก่น ประตูน้ำ","ATTR_1":"6+303","ATTR_2":"ลำน้ำพองบน3","ATTR_3":"บ้านเรือ","ATTR_4":"ภูเวียง","ATTR_5":"ขอนแก่น","ATTR_6":"ประตูน้ำ","ELEVATION":182.37,"ATTR_7":null,"LAYER":"Unknown Point Feature"}},
{"type":"Feature","geometry":{"type":"Point","coordinates":[102.20730865135152,16.956203628071666]},"properties":{"Name":"6+048 น้ำพวยส่วน3 นากอก ศรีบุญเรือง หนองบัวลำภู บล็อกคอนเวิร์ส","ATTR_1":"6+048","ATTR_2":"น้ำพวยส่วน3","ATTR_3":"นากอก","ATTR_4":"ศรีบุญเรือง","ATTR_5":"หนองบัวลำภู","ATTR_6":"บล็อกคอนเวิร์ส","ELEVATION":198.606,"ATTR_7":null,"LAYER":"Unknown Point Feature"}},
{"type":"Feature","geometry":{"type":"Point","coordinates":[102.03274663809145,16.538885252746866]},"properties":{"Name":"134+264 ลำน้ำเชิญ โนนสะอาด ชุมแพ ขอนแก่น ประตูน้ำ","ATTR_1":"134+264","ATTR_2":"ลำน้ำเชิญ","ATTR_3":"โนนสะอาด","ATTR_4":"ชุมแพ","ATTR_5":"ขอนแก่น","ATTR_6":"ประตูน้ำ","ELEVATION":213.225,"ATTR_7":null,"LAYER":"Unknown Point Feature"}},
{"type":"Feature","geometry":{"type":"Point","coordinates":[102.42395161850543,17.00083862745517]},"properties":{"Name":"34+257 หัวนา เมืองหนองบัวลำภู หนองบัวลำภู ลำพะเนียง ประตูน้ำ","ATTR_1":"34+257","ATTR_2":"หัวนา","ATTR_3":"เมืองหนองบัวลำภู","ATTR_4":"หนองบัวลำภู","ATTR_5":"ลำพะเนียง","ATTR_6":"ประตูน้ำ","ELEVATION":187.414,"ATTR_7":null,"LAYER":null}},
{"type":"Feature","geometry":{"type":"Point","coordinates":[102.08928795456856,15.799418591863198]},"properties":{"Name":"1+896 ลำปะทาว กุดตุ้ม เมืองชัยภูมิ ชัยภูมิ ถนนท่อลอด","ATTR_1":"1+896","ATTR_2":"ลำปะทาว","ATTR_3":"กุดตุ้ม","ATTR_4":"เมืองชัยภูมิ","ATTR_5":"ชัยภูมิ","ATTR_6":"ถนนท่อลอด","ELEVATION":176.395,"ATTR_7":null,"LAYER":"Unknown Point Feature"}},
{"type":"Feature","geometry":{"type":"Point","coordinates":[102.07793498786152,15.80644619786909]},"properties":{"Name":"3+939 ลำปะทาว กุดตุ้ม เมืองชัยภูมิ ชัยภูมิ ถนนท่อลอด","ATTR_1":"3+939","ATTR_2":"ลำปะทาว","ATTR_3":"กุดตุ้ม","ATTR_4":"เมืองชัยภูมิ","ATTR_5":"ชัยภูมิ","ATTR_6":"ถนนท่อลอด","ELEVATION":177.716,"ATTR_7":null,"LAYER":"Unknown Point Feature"}},
{"type":"Feature","geometry":{"type":"Point","coordinates":[102.07130739372363,15.811641235174191]},"properties":{"Name":"5+125 ลำปะทาว โพนทอง เมืองชัยภูมิ ชัยภูมิ ถนนท่อลอด","ATTR_1":"5+125","ATTR_2":"ลำปะทาว","ATTR_3":"โพนทอง","ATTR_4":"เมืองชัยภูมิ","ATTR_5":"ชัยภูมิ","ATTR_6":"ถนนท่อลอด","ELEVATION":178.206,"ATTR_7":null,"LAYER":"Unknown Point Feature"}},
{"type":"Feature","geometry":{"type":"Point","coordinates":[102.05371812239538,15.855334159938954]},"properties":{"Name":"12+349 ลำปะทาว บ้านเล่า เมืองชัยภูมิ ชัยภูมิ ประตูน้ำ","ATTR_1":"12+349","ATTR_2":"ลำปะทาว","ATTR_3":"บ้านเล่า","ATTR_4":"เมืองชัยภูมิ","ATTR_5":"ชัยภูมิ","ATTR_6":"ประตูน้ำ","ELEVATION":184.766,"ATTR_7":null,"LAYER":"Unknown Point Feature"}},
{"type":"Feature","geometry":{"type":"Point","coordinates":[101.86295264510129,15.74453682816656]},"properties":{"Name":"30+397 ห้วยโป่ง บ้านเขว้า บ้านเขว้า ชัยภูมิ ถนนท่อลอด","ATTR_1":"30+397","ATTR_2":"ห้วยโป่ง","ATTR_3":"บ้านเขว้า","ATTR_4":"บ้านเขว้า","ATTR_5":"ชัยภูมิ","ATTR_6":"ถนนท่อลอด","ELEVATION":189.744,"ATTR_7":null,"LAYER":"Unknown Point Feature"}},
{"type":"Feature","geometry":{"type":"Point","coordinates":[101.85626513511762,15.796854053554208]},"properties":{"Name":"3+141 หนองขี้ตุ่น ตลาดแร้ง บ้านเขว้า ชัยภูมิ ประตูน้ำ","ATTR_1":"3+141","ATTR_2":"หนองขี้ตุ่น","ATTR_3":"ตลาดแร้ง","ATTR_4":"บ้านเขว้า","ATTR_5":"ชัยภูมิ","ATTR_6":"ประตูน้ำ","ELEVATION":195.494,"ATTR_7":null,"LAYER":"Unknown Point Feature"}},
{"type":"Feature","geometry":{"type":"Point","coordinates":[102.11329490067173,15.774547620213214]},"properties":{"Name":"15+102 ลำปะทาวตอนล่าง บุ่งคล้า เมืองชัยภูมิ ชัยภูมิ ประตูน้ำ","ATTR_1":"15+102","ATTR_2":"ลำปะทาวตอนล่าง","ATTR_3":"บุ่งคล้า","ATTR_4":"เมืองชัยภูมิ","ATTR_5":"ชัยภูมิ","ATTR_6":"ประตูน้ำ","ELEVATION":171.932,"ATTR_7":null,"LAYER":"Unknown Point Feature"}},
{"type":"Feature","geometry":{"type":"Point","coordinates":[101.73657909762407,15.485494722461581]},"properties":{"Name":"0+000 นอกลำน้ำ บ้านตาล บำเหน็จณรงค์ ชัยภูมิ ท่อลอด","ATTR_1":"0+000","ATTR_2":"นอกลำน้ำ","ATTR_3":"บ้านตาล","ATTR_4":"บำเหน็จณรงค์","ATTR_5":"ชัยภูมิ","ATTR_6":"ท่อลอด","ELEVATION":203.205,"ATTR_7":null,"LAYER":"Unknown Point Feature"}},
{"type":"Feature","geometry":{"type":"Point","coordinates":[103.17954015928488,16.371440591637345]},"properties":{"Name":"0+000 นอกลำน้ำ หัวนาคำ ยางตลาด กาฬสินธุ์ ท่อลอด","ATTR_1":"0+000","ATTR_2":"นอกลำน้ำ","ATTR_3":"หัวนาคำ","ATTR_4":"ยางตลาด","ATTR_5":"กาฬสินธุ์","ATTR_6":"ท่อลอด","ELEVATION":145.313,"ATTR_7":null,"LAYER":"Unknown Point Feature"}},
{"type":"Feature","geometry":{"type":"Point","coordinates":[102.29238994731162,16.556698469767582]},"properties":{"Name":"0+000 นอกลำน้ำ โนนสะอาด หนองเรือ ขอนแก่น ท่อลอด","ATTR_1":"0+000","ATTR_2":"นอกลำน้ำ","ATTR_3":"โนนสะอาด","ATTR_4":"หนองเรือ","ATTR_5":"ขอนแก่น","ATTR_6":"ท่อลอด","ELEVATION":141.561,"ATTR_7":null,"LAYER":"Unknown Point Feature"}},
{"type":"Feature","geometry":{"type":"Point","coordinates":[101.92939581792521,15.750465375465508]},"properties":{"Name":"0+000 นอกลำน้ำ บ้านเขว้า บ้านเขว้า ชัยภูมิ","ATTR_1":"0+000","ATTR_2":"นอกลำน้ำ","ATTR_3":"บ้านเขว้า","ATTR_4":"บ้านเขว้า","ATTR_5":"ชัยภูมิ","ATTR_6":null,"ELEVATION":184.378,"ATTR_7":null,"LAYER":"Unknown Point Feature"}}
]}